{"type":"FeatureCollection","features":[{"type":"Feature","id":0,"geometry":{"type":"Point","coordinates":[156.015,50.685]},"properties":{"FID":0,"Id":1,"height":1138,"hyperlink":"\\Descriptions\\Ebeko.doc","Name_eng":"Ebeko","type":1,"type2":0,"X":156.02299499511719,"Y":50.688499450683594}},{"type":"Feature","id":1,"geometry":{"type":"Point","coordinates":[155.461,50.323]},"properties":{"FID":1,"Id":1,"height":1817,"hyperlink":"\\Descriptions\\Chikyrachki.doc","Name_eng":"Chikurachki","type":1,"type2":0,"X":155.45799255371094,"Y":50.317401885986328}},{"type":"Feature","id":2,"geometry":{"type":"Point","coordinates":[155.386,50.142]},"properties":{"FID":2,"Id":1,"height":1345,"hyperlink":"\\Descriptions\\Karpinskogo.doc","Name_eng":"Karpinskogo","type":1,"type2":0,"X":155.37600708007813,"Y":50.144699096679688}},{"type":"Feature","id":3,"geometry":{"type":"Point","coordinates":[155.247,50.267]},"properties":{"FID":3,"Id":1,"height":1772,"hyperlink":"\\Descriptions\\Fyssa.doc","Name_eng":"Fyssa","type":1,"type2":0,"X":155.25700378417969,"Y":50.271598815917969}},{"type":"Feature","id":4,"geometry":{"type":"Point","coordinates":[154.813,49.564]},"properties":{"FID":4,"Id":1,"height":1019,"hyperlink":"\\Descriptions\\Pik_Nemo.doc","Name_eng":"Pik Nemo","type":1,"type2":0,"X":154.81100463867188,"Y":49.570098876953125}},{"type":"Feature","id":5,"geometry":{"type":"Point","coordinates":[154.708,49.354]},"properties":{"FID":5,"Id":1,"height":1325,"hyperlink":"\\Descriptions\\Krenicina.doc","Name_eng":"Krenicina","type":1,"type2":0,"X":154.70399475097656,"Y":49.353298187255859}},{"type":"Feature","id":6,"geometry":{"type":"Point","coordinates":[154.5139677400083,49.117830218721956]},"properties":{"FID":6,"Id":1,"height":1145,"hyperlink":"\\Descriptions\\Severgina.doc","Name_eng":"Severgina","type":1,"type2":0,"X":154.51400756835938,"Y":49.117801666259766}},{"type":"Feature","id":7,"geometry":{"type":"Point","coordinates":[153.941,48.948]},"properties":{"FID":7,"Id":1,"height":1171,"hyperlink":"\\Descriptions\\Ekarma.doc","Name_eng":"Ekarma","type":1,"type2":0,"X":153.93800354003906,"Y":48.94580078125}},{"type":"Feature","id":8,"geometry":{"type":"Point","coordinates":[154.181,48.872]},"properties":{"FID":8,"Id":1,"height":934,"hyperlink":"\\Descriptions\\Sinarka.doc","Name_eng":"Sinarka","type":1,"type2":0,"X":154.18299865722656,"Y":48.871700286865234}},{"type":"Feature","id":9,"geometry":{"type":"Point","coordinates":[154.017,48.754]},"properties":{"FID":9,"Id":1,"height":828,"hyperlink":"\\Descriptions\\Kyntomintar.doc","Name_eng":"Kuntomintar","type":1,"type2":0,"X":154.02000427246094,"Y":48.755500793457031}},{"type":"Feature","id":10,"geometry":{"type":"Point","coordinates":[153.25352815870639,48.291812496695179]},"properties":{"FID":10,"Id":1,"height":551,"hyperlink":"\\Descriptions\\Raikoke.doc","Name_eng":"Raikoke","type":1,"type2":0,"X":153.25399780273438,"Y":48.291801452636719}},{"type":"Feature","id":11,"geometry":{"type":"Point","coordinates":[153.200,48.09]},"properties":{"FID":11,"Id":1,"height":1497,"hyperlink":"\\Descriptions\\Pik_Saricheva.doc","Name_eng":"Pik Saricheva","type":1,"type2":0,"X":153.19999694824219,"Y":48.087100982666016}},{"type":"Feature","id":12,"geometry":{"type":"Point","coordinates":[146.25065771964509,44.353740709247695]},"properties":{"FID":12,"Id":1,"height":1822,"hyperlink":"\\Descriptions\\Tjatja.doc","Name_eng":"Tyatya","type":1,"type2":0,"X":146.25100708007813,"Y":44.35369873046875}},{"type":"Feature","id":13,"geometry":{"type":"Point","coordinates":[146.928,44.478]},"properties":{"FID":13,"Id":1,"height":1222,"hyperlink":"\\Descriptions\\Berytarybe.doc","Name_eng":"Berutarube","type":1,"type2":0,"X":146.93099975585938,"Y":44.474498748779297}},{"type":"Feature","id":14,"geometry":{"type":"Point","coordinates":[153.026,47.756]},"properties":{"FID":14,"Id":1,"height":956,"hyperlink":"\\Descriptions\\Rashya.doc","Name_eng":"Rashua","type":1,"type2":0,"X":153.02999877929688,"Y":47.756198883056641}},{"type":"Feature","id":15,"geometry":{"type":"Point","coordinates":[152.477,47.342]},"properties":{"FID":15,"Id":1,"height":1002,"hyperlink":"\\Descriptions\\Pik_Pallasa.doc","Name_eng":"Pik Pallasa","type":1,"type2":0,"X":152.45799255371094,"Y":47.349201202392578}},{"type":"Feature","id":16,"geometry":{"type":"Point","coordinates":[152.802,47.515]},"properties":{"FID":16,"Id":1,"height":401,"hyperlink":"\\Descriptions\\Yshishir.doc","Name_eng":"Ushishir","type":1,"type2":0,"X":152.82099914550781,"Y":47.512100219726563}},{"type":"Feature","id":17,"geometry":{"type":"Point","coordinates":[152.117,47.014]},"properties":{"FID":17,"Id":1,"height":1360,"hyperlink":"\\Descriptions\\Pik_Prevo.doc","Name_eng":"Pik Prevo","type":1,"type2":0,"X":152.1199951171875,"Y":47.011798858642578}},{"type":"Feature","id":18,"geometry":{"type":"Point","coordinates":[151.787,46.815]},"properties":{"FID":18,"Id":1,"height":891,"hyperlink":"\\Descriptions\\Gorjachaa_sopka.doc","Name_eng":"Goryachaya sopka","type":1,"type2":0,"X":151.76699829101563,"Y":46.828498840332031}},{"type":"Feature","id":19,"geometry":{"type":"Point","coordinates":[151.947,46.927]},"properties":{"FID":19,"Id":1,"height":624,"hyperlink":"\\Descriptions\\Zavarickogo.doc","Name_eng":"Zavarickogo","type":1,"type2":0,"X":151.95599365234375,"Y":46.930599212646484}},{"type":"Feature","id":20,"geometry":{"type":"Point","coordinates":[150.872,46.532]},"properties":{"FID":20,"Id":1,"height":624,"hyperlink":"\\Descriptions\\Chernogo.doc","Name_eng":"Chernogo","type":1,"type2":0,"X":150.88800048828125,"Y":46.530899047851563}},{"type":"Feature","id":21,"geometry":{"type":"Point","coordinates":[150.867,46.521]},"properties":{"FID":21,"Id":1,"height":400,"hyperlink":"\\Descriptions\\Snow.doc","Name_eng":"Snow","type":1,"type2":0,"X":150.87699890136719,"Y":46.511798858642578}},{"type":"Feature","id":22,"geometry":{"type":"Point","coordinates":[150.794,46.463]},"properties":{"FID":22,"Id":3,"height":752,"hyperlink":"\\Descriptions\\Brat_Chirpoev.doc","Name_eng":"Brat Chirpoev","type":3,"type2":0,"X":150.81599426269531,"Y":46.458900451660156}},{"type":"Feature","id":23,"geometry":{"type":"Point","coordinates":[150.104,46.067]},"properties":{"FID":23,"Id":2,"height":1017,"hyperlink":"\\Descriptions\\Trezybec.doc","Name_eng":"Trezybec","type":2,"type2":0,"X":150.11500549316406,"Y":46.062400817871094}},{"type":"Feature","id":24,"geometry":{"type":"Point","coordinates":[150.068,46.060]},"properties":{"FID":24,"Id":1,"height":950,"hyperlink":"\\Descriptions\\Berga.doc","Name_eng":"Berga","type":1,"type2":0,"X":150.08299255371094,"Y":46.064998626708984}},{"type":"Feature","id":25,"geometry":{"type":"Point","coordinates":[150.048,46.044]},"properties":{"FID":25,"Id":3,"height":1330,"hyperlink":"\\Descriptions\\Kolokol.doc","Name_eng":"Kolokol","type":3,"type2":0,"X":150.05299377441406,"Y":46.042999267578125}},{"type":"Feature","id":26,"geometry":{"type":"Point","coordinates":[148.824,45.386]},"properties":{"FID":26,"Id":1,"height":991,"hyperlink":"\\Descriptions\\Kydriavii.doc","Name_eng":"Kudryaviy","type":1,"type2":0,"X":148.83799743652344,"Y":45.377399444580078}},{"type":"Feature","id":27,"geometry":{"type":"Point","coordinates":[147.914,45.379]},"properties":{"FID":27,"Id":1,"height":1564,"hyperlink":"\\Descriptions\\Chirip.doc","Name_eng":"Chirip","type":1,"type2":0,"X":147.91200256347656,"Y":45.369499206542969}},{"type":"Feature","id":28,"geometry":{"type":"Point","coordinates":[148.019,45.104]},"properties":{"FID":28,"Id":2,"height":1126,"hyperlink":"\\Descriptions\\Baranskogo.doc","Name_eng":"Baranskogo","type":2,"type2":0,"X":148.02200317382813,"Y":45.095001220703125}},{"type":"Feature","id":29,"geometry":{"type":"Point","coordinates":[147.918,45.028]},"properties":{"FID":29,"Id":2,"height":1212,"hyperlink":"\\Descriptions\\Tebenkogo.doc","Name_eng":"Tebenkogo","type":2,"type2":0,"X":147.9219970703125,"Y":45.021701812744141}},{"type":"Feature","id":30,"geometry":{"type":"Point","coordinates":[147.873,45.011]},"properties":{"FID":30,"Id":2,"height":1158,"hyperlink":"\\Descriptions\\Ivan_Groznii.doc","Name_eng":"Ivan Groznii","type":2,"type2":0,"X":147.89500427246094,"Y":45.017101287841797}},{"type":"Feature","id":31,"geometry":{"type":"Point","coordinates":[147.130,44.807]},"properties":{"FID":31,"Id":1,"height":1205,"hyperlink":"\\Descriptions\\Atsonypyri.doc","Name_eng":"Atsonupuri","type":1,"type2":0,"X":147.12899780273438,"Y":44.802700042724609}},{"type":"Feature","id":32,"geometry":{"type":"Point","coordinates":[145.73832542817175,43.977270876263802]},"properties":{"FID":32,"Id":1,"height":890,"hyperlink":"\\Descriptions\\Mendeleeva.doc","Name_eng":"Mendeleeva","type":1,"type2":0,"X":145.73800659179688,"Y":43.977298736572266}},{"type":"Feature","id":33,"geometry":{"type":"Point","coordinates":[145.50066243019342,43.866458680887405]},"properties":{"FID":33,"Id":1,"height":547,"hyperlink":"\\Descriptions\\Golovina.doc","Name_eng":"Golovina","type":1,"type2":0,"X":145.50100708007813,"Y":43.866500854492188}},{"type":"Feature","id":34,"geometry":{"type":"Point","coordinates":[155.551,50.861]},"properties":{"FID":34,"Id":1,"height":2339,"hyperlink":"\\Descriptions\\Alaid.doc","Name_eng":"Alaid","type":1,"type2":0,"X":155.55799865722656,"Y":50.863899230957031}},{"type":"Feature","id":35,"geometry":{"type":"Point","coordinates":[153.479,48.980]},"properties":{"FID":35,"Id":1,"height":724,"hyperlink":"\\Descriptions\\Chirinkotan.doc","Name_eng":"Chirinkotan","type":1,"type2":0,"X":153.49000549316406,"Y":48.981399536132813}},{"type":"Feature","id":36,"geometry":{"type":"Point","coordinates":[155.996,50.600]},"properties":{"FID":36,"Id":3,"height":0,"hyperlink":"\\Descriptions\\Krasheninnikogo.doc","Name_eng":"Krasheninnikogo","type":3,"type2":0,"X":156.00700378417969,"Y":50.608600616455078}},{"type":"Feature","id":37,"geometry":{"type":"Point","coordinates":[155.996,50.621]},"properties":{"FID":37,"Id":3,"height":0,"hyperlink":"\\Descriptions\\Bogdanovicha.doc","Name_eng":"Bogdanovicha","type":3,"type2":0,"X":155.98399353027344,"Y":50.631301879882813}},{"type":"Feature","id":38,"geometry":{"type":"Point","coordinates":[155.975,50.556]},"properties":{"FID":38,"Id":3,"height":0,"hyperlink":"\\Descriptions\\Kozirovskogo.doc","Name_eng":"Kozirovskogo","type":3,"type2":0,"X":155.95700073242188,"Y":50.574199676513672}},{"type":"Feature","id":39,"geometry":{"type":"Point","coordinates":[155.938,50.549]},"properties":{"FID":39,"Id":3,"height":0,"hyperlink":"\\Descriptions\\Bilibina.doc","Name_eng":"Bilibina","type":3,"type2":0,"X":155.96800231933594,"Y":50.546199798583984}},{"type":"Feature","id":40,"geometry":{"type":"Point","coordinates":[155.433,50.252]},"properties":{"FID":40,"Id":3,"height":0,"hyperlink":"\\Descriptions\\Lomonosova.doc","Name_eng":"Lomonosova","type":3,"type2":0,"X":155.43800354003906,"Y":50.262001037597656}},{"type":"Feature","id":41,"geometry":{"type":"Point","coordinates":[155.434,50.296]},"properties":{"FID":41,"Id":2,"height":1530,"hyperlink":"\\Descriptions\\Tatarinova.doc","Name_eng":"Tatarinova","type":2,"type2":0,"X":155.44000244140625,"Y":50.294300079345703}},{"type":"Feature","id":42,"geometry":{"type":"Point","coordinates":[154.895,49.601]},"properties":{"FID":42,"Id":1,"height":570,"hyperlink":"\\Descriptions\\Asirmentar.doc","Name_eng":"Asirmentar","type":1,"type2":0,"X":154.87600708007813,"Y":49.605400085449219}},{"type":"Feature","id":43,"geometry":{"type":"Point","coordinates":[147.920,45.337]},"properties":{"FID":43,"Id":3,"height":0,"hyperlink":"\\Descriptions\\Bogdan_Hmelnickii.doc","Name_eng":"Bogdan Hmelnitzkiy","type":3,"type2":0,"X":147.91900634765625,"Y":45.330799102783203}},{"type":"Feature","id":44,"geometry":{"type":"Point","coordinates":[147.344,44.839]},"properties":{"FID":44,"Id":3,"height":0,"hyperlink":"\\Descriptions\\Stokap.doc","Name_eng":"Stokap","type":3,"type2":0,"X":147.35000610351563,"Y":44.833301544189453}},{"type":"Feature","id":45,"geometry":{"type":"Point","coordinates":[148.785,45.383]},"properties":{"FID":45,"Id":1,"height":0,"hyperlink":"\\Descriptions\\Menshoi_brat.doc","Name_eng":"Menshoy brat","type":1,"type2":0,"X":148.77000427246094,"Y":45.364498138427734}},{"type":"Feature","id":46,"geometry":{"type":"Point","coordinates":[152.438,47.342]},"properties":{"FID":46,"Id":3,"height":0,"hyperlink":"\\Descriptions\\Ketoi.doc","Name_eng":"Ketoy","type":3,"type2":0,"X":152.44200134277344,"Y":47.328300476074219}},{"type":"Feature","id":47,"geometry":{"type":"Point","coordinates":[156.876,51.306]},"properties":{"FID":47,"Id":0,"height":2161,"hyperlink":"\\Descriptions\\kambalnii.doc","Name_eng":"Kambal'niy","type":3,"type2":6,"X":156.86900329589844,"Y":51.305999755859375}},{"type":"Feature","id":48,"geometry":{"type":"Point","coordinates":[156.754,51.355]},"properties":{"FID":48,"Id":0,"height":1853,"hyperlink":"\\Descriptions\\koshelev.doc","Name_eng":"Kosheleva","type":1,"type2":3,"X":156.73300170898438,"Y":51.358200073242188}},{"type":"Feature","id":49,"geometry":{"type":"Point","coordinates":[158.712,53.321]},"properties":{"FID":49,"Id":0,"height":3456,"hyperlink":"\\Descriptions\\koriakskii.doc","Name_eng":"Koryakskiy","type":1,"type2":2,"X":158.71099853515625,"Y":53.315498352050781}},{"type":"Feature","id":50,"geometry":{"type":"Point","coordinates":[158.836,53.257]},"properties":{"FID":50,"Id":0,"height":2741,"hyperlink":"\\Descriptions\\avachinskii.doc","Name_eng":"Avachinskiy","type":1,"type2":1,"X":158.83900451660156,"Y":53.249801635742188}},{"type":"Feature","id":51,"geometry":{"type":"Point","coordinates":[159.150,53.589]},"properties":{"FID":51,"Id":0,"height":2923,"hyperlink":"\\Descriptions\\jypanovskii.doc","Name_eng":"Zhupanovskiy","type":1,"type2":6,"X":159.1300048828125,"Y":53.585201263427734}},{"type":"Feature","id":52,"geometry":{"type":"Point","coordinates":[158.928,53.638]},"properties":{"FID":52,"Id":0,"height":1262,"hyperlink":"\\Descriptions\\dzenzyrskii.doc","Name_eng":"Dzenzurskiy","type":1,"type2":6,"X":158.92100524902344,"Y":53.636299133300781}},{"type":"Feature","id":53,"geometry":{"type":"Point","coordinates":[161.316,56.635]},"properties":{"FID":53,"Id":0,"height":3307,"hyperlink":"\\Descriptions\\shevelych.doc","Name_eng":"Shiveluch","type":1,"type2":3,"X":161.35400390625,"Y":56.65570068359375}},{"type":"Feature","id":54,"geometry":{"type":"Point","coordinates":[160.642,56.056]},"properties":{"FID":54,"Id":0,"height":4688,"hyperlink":"\\Descriptions\\kluchevskoi.doc","Name_eng":"Kluchevskoy","type":1,"type2":2,"X":160.642,"Y":56.056}},{"type":"Feature","id":55,"geometry":{"type":"Point","coordinates":[160.598,55.971]},"properties":{"FID":55,"Id":0,"height":2869,"hyperlink":"\\Descriptions\\bezimiannii.doc","Name_eng":"Bezimyanniy","type":1,"type2":3,"X":160.59300231933594,"Y":55.966499328613281}},{"type":"Feature","id":56,"geometry":{"type":"Point","coordinates":[160.391,55.819]},"properties":{"FID":56,"Id":0,"height":3672,"hyperlink":"\\Descriptions\\ploskiitolbachik.doc","Name_eng":"Ploskiy Tolbachik","type":1,"type2":2,"X":160.33200073242188,"Y":55.827499389648438}},{"type":"Feature","id":57,"geometry":{"type":"Point","coordinates":[160.533,54.753]},"properties":{"FID":57,"Id":0,"height":3528,"hyperlink":"\\Descriptions\\kronockii.doc","Name_eng":"Kronockiy","type":1,"type2":6,"X":160.52200317382813,"Y":54.754199981689453}},{"type":"Feature","id":58,"geometry":{"type":"Point","coordinates":[160.703,54.974]},"properties":{"FID":58,"Id":0,"height":2576,"hyperlink":"\\Descriptions\\gamchen.doc","Name_eng":"Gamchen","type":2,"type2":1,"X":160.69900512695313,"Y":54.966598510742188}},{"type":"Feature","id":59,"geometry":{"type":"Point","coordinates":[160.320,55.130]},"properties":{"FID":59,"Id":0,"height":2375,"hyperlink":"\\Descriptions\\kizimen.doc","Name_eng":"Kizimen","type":1,"type2":2,"X":160.31900024414063,"Y":55.12860107421875}},{"type":"Feature","id":60,"geometry":{"type":"Point","coordinates":[160.26678059455986,54.596]},"properties":{"FID":60,"Id":0,"height":1856,"hyperlink":"\\Descriptions\\krasheninnikova.doc","Name_eng":"Krasheninnikova","type":3,"type2":4,"X":160.26699829101563,"Y":54.595699310302734}},{"type":"Feature","id":61,"geometry":{"type":"Point","coordinates":[160.507,56.114]},"properties":{"FID":61,"Id":0,"height":4057,"hyperlink":"\\Descriptions\\krestovskii.doc","Name_eng":"Krestovskiy","type":2,"type2":6,"X":160.51400756835938,"Y":56.11199951171875}},{"type":"Feature","id":62,"geometry":{"type":"Point","coordinates":[160.472,56.071]},"properties":{"FID":62,"Id":0,"height":3903,"hyperlink":"\\Descriptions\\yshkovskii.doc","Name_eng":"Ushkovskiy","type":1,"type2":6,"X":160.47799682617188,"Y":56.076801300048828}},{"type":"Feature","id":63,"geometry":{"type":"Point","coordinates":[160.766,55.064]},"properties":{"FID":63,"Id":0,"height":2153,"hyperlink":"\\Descriptions\\visokii.doc","Name_eng":"Visokiy","type":1,"type2":1,"X":160.76300048828125,"Y":55.063701629638672}},{"type":"Feature","id":64,"geometry":{"type":"Point","coordinates":[157.722,55.678]},"properties":{"FID":64,"Id":0,"height":3607,"hyperlink":"\\Descriptions\\ichinskii.doc","Name_eng":"Ichinskiy","type":2,"type2":3,"X":157.71099853515625,"Y":55.670600891113281}},{"type":"Feature","id":65,"geometry":{"type":"Point","coordinates":[160.725,55.033]},"properties":{"FID":65,"Id":0,"height":2050,"hyperlink":"\\Descriptions\\komarova.doc","Name_eng":"Komarova","type":2,"type2":1,"X":160.718994140625,"Y":55.035400390625}},{"type":"Feature","id":66,"geometry":{"type":"Point","coordinates":[160.253,54.489]},"properties":{"FID":66,"Id":0,"height":1552,"hyperlink":"\\Descriptions\\kixpinich.doc","Name_eng":"Kihpinich","type":1,"type2":6,"X":160.22599792480469,"Y":54.4739990234375}},{"type":"Feature","id":67,"geometry":{"type":"Point","coordinates":[159.971,54.494]},"properties":{"FID":67,"Id":0,"height":1617,"hyperlink":"\\Descriptions\\uzon.doc","Name_eng":"Uzon","type":2,"type2":4,"X":159.90699768066406,"Y":54.508201599121094}},{"type":"Feature","id":68,"geometry":{"type":"Point","coordinates":[159.960,54.283]},"properties":{"FID":68,"Id":0,"height":1720,"hyperlink":"\\Descriptions\\centralsemiachik.doc","Name_eng":"Centralniy Semyachik","type":2,"type2":0,"X":160.02000427246094,"Y":54.312900543212891}},{"type":"Feature","id":69,"geometry":{"type":"Point","coordinates":[159.676,54.122]},"properties":{"FID":69,"Id":0,"height":1563,"hyperlink":"\\Descriptions\\malsemiachik.doc","Name_eng":"Maliy Semyachik","type":1,"type2":0,"X":159.66900634765625,"Y":54.126201629638672}},{"type":"Feature","id":70,"geometry":{"type":"Point","coordinates":[159.443,54.049]},"properties":{"FID":70,"Id":0,"height":1468,"hyperlink":"\\Descriptions\\karimskii.doc","Name_eng":"Karimskiy","type":1,"type2":0,"X":159.41499328613281,"Y":54.074901580810547}},{"type":"Feature","id":71,"geometry":{"type":"Point","coordinates":[158.504,53.773]},"properties":{"FID":71,"Id":0,"height":1209,"hyperlink":"\\Descriptions\\veer.doc","Name_eng":"Veer","type":2,"type2":0,"X":158.51400756835938,"Y":53.773700714111328}},{"type":"Feature","id":72,"geometry":{"type":"Point","coordinates":[158.071,53.906]},"properties":{"FID":72,"Id":0,"height":2277,"hyperlink":"\\Descriptions\\bakening.doc","Name_eng":"Bakening","type":3,"type2":0,"X":158.07699584960938,"Y":53.907001495361328}},{"type":"Feature","id":73,"geometry":{"type":"Point","coordinates":[158.030,52.558]},"properties":{"FID":73,"Id":0,"height":1829,"hyperlink":"\\Descriptions\\gorelii.doc","Name_eng":"Goreliy","type":1,"type2":0,"X":158.03599548339844,"Y":52.552799224853516}},{"type":"Feature","id":74,"geometry":{"type":"Point","coordinates":[158.281,52.705]},"properties":{"FID":74,"Id":0,"height":2173,"hyperlink":"\\Descriptions\\viluchunskii.doc","Name_eng":"Viluchenskiy","type":2,"type2":0,"X":158.28199768066406,"Y":52.696300506591797}},{"type":"Feature","id":75,"geometry":{"type":"Point","coordinates":[158.197,52.449]},"properties":{"FID":75,"Id":0,"height":2322,"hyperlink":"\\Descriptions\\mutnovskii.doc","Name_eng":"Mutnovskiy","type":1,"type2":0,"X":158.18499755859375,"Y":52.443000793457031}},{"type":"Feature","id":76,"geometry":{"type":"Point","coordinates":[157.339,52.543]},"properties":{"FID":76,"Id":0,"height":2460,"hyperlink":"\\Descriptions\\opala.doc","Name_eng":"Opala","type":1,"type2":0,"X":157.33299255371094,"Y":52.535900115966797}},{"type":"Feature","id":77,"geometry":{"type":"Point","coordinates":[157.204,51.498]},"properties":{"FID":77,"Id":0,"height":1577,"hyperlink":"\\Descriptions\\ilinskii.doc","Name_eng":"Il'inskiy","type":1,"type2":0,"X":157.15699768066406,"Y":51.518501281738281}},{"type":"Feature","id":78,"geometry":{"type":"Point","coordinates":[157.328,51.576]},"properties":{"FID":78,"Id":0,"height":1957,"hyperlink":"\\Descriptions\\jeltovskii.doc","Name_eng":"Zheltovskiy","type":1,"type2":0,"X":157.32499694824219,"Y":51.579700469970703}},{"type":"Feature","id":79,"geometry":{"type":"Point","coordinates":[157.526,51.819]},"properties":{"FID":79,"Id":0,"height":1079,"hyperlink":"\\Descriptions\\ksyda4.doc","Name_eng":"Ksudach","type":1,"type2":0,"X":157.48699951171875,"Y":51.823200225830078}},{"type":"Feature","id":80,"geometry":{"type":"Point","coordinates":[157.830,52.355]},"properties":{"FID":80,"Id":0,"height":1909,"hyperlink":"\\Descriptions\\asacha.doc","Name_eng":"Asacha","type":1,"type2":0,"X":157.82699584960938,"Y":52.352001190185547}},{"type":"Feature","id":81,"geometry":{"type":"Point","coordinates":[157.711,52.062]},"properties":{"FID":81,"Id":0,"height":2090,"hyperlink":"\\Descriptions\\xodytka.doc","Name_eng":"Hodutka","type":2,"type2":0,"X":0,"Y":0}},{"type":"Feature","id":82,"geometry":{"type":"Point","coordinates":[159.805,54.528]},"properties":{"FID":82,"Id":0,"height":2353,"hyperlink":"\\Descriptions\\taynwic.doc","Name_eng":"Taunshic","type":2,"type2":0,"X":0,"Y":0}},{"type":"Feature","id":83,"geometry":{"type":"Point","coordinates":[157.407,54.762]},"properties":{"FID":83,"Id":0,"height":2000,"hyperlink":"\\Descriptions\\xangar.doc","Name_eng":"Hangar","type":2,"type2":0,"X":0,"Y":0}},{"type":"Feature","id":84,"geometry":{"type":"Point","coordinates":[159.884,54.328]},"properties":{"FID":84,"Id":0,"height":0,"hyperlink":"\\Descriptions\\baranii.doc","Name_eng":"Baraniy","type":3,"type2":0,"X":0,"Y":0}},{"type":"Feature","id":85,"geometry":{"type":"Point","coordinates":[159.462,53.998]},"properties":{"FID":85,"Id":0,"height":0,"hyperlink":"\\Descriptions\\akademiinayki.doc","Name_eng":"Akademii Nauk","type":1,"type2":0,"X":0,"Y":0}},{"type":"Feature","id":86,"geometry":{"type":"Point","coordinates":[159.975,54.328]},"properties":{"FID":86,"Id":0,"height":0,"hyperlink":"\\Descriptions\\byrliawii.doc","Name_eng":"Burlyachiy","type":2,"type2":0,"X":0,"Y":0}},{"type":"Feature","id":87,"geometry":{"type":"Point","coordinates":[160.824,58.136]},"properties":{"FID":87,"Id":0,"height":2170,"hyperlink":"\\Descriptions\\spokoinii.doc","Name_eng":"Spokoyniy","type":2,"type2":0,"X":0,"Y":0}},{"type":"Feature","id":88,"geometry":{"type":"Point","coordinates":[159.645,56.692]},"properties":{"FID":88,"Id":0,"height":2598,"hyperlink":"\\Descriptions\\alney.doc","Name_eng":"Alney","type":2,"type2":0,"X":0,"Y":0}},{"type":"Feature","id":89,"geometry":{"type":"Point","coordinates":[160.196,57.331]},"properties":{"FID":89,"Id":0,"height":0,"hyperlink":"\\Descriptions\\gorniiinstityt.doc","Name_eng":"Gornogo instituta","type":2,"type2":0,"X":0,"Y":0}},{"type":"Feature","id":90,"geometry":{"type":"Point","coordinates":[156.745,51.438]},"properties":{"FID":90,"Id":0,"height":0,"hyperlink":" ","Name_eng":"Dikiy Greben'","type":2,"type2":0,"X":0,"Y":0}}]}